[
  {
    "id": 33,
    "unlocode": "PKKHI",
    "name": "Karachi",
    "country_code": "PK",
    "country_name": "Pakistan",
    "latitude": 24.84,
    "longitude": 66.97,
    "function": "1--",
    "port_type": "Sea Port",
    "terminals": 4,
    "max_depth_m": 15.0,
    "website": null,
    "phone": null,
    "address": null,
    "annual_teu": 4500000,
    "status": "active",
    "created_at": "2026-04-24 13:27:31"
  },
  {
    "id": 34,
    "unlocode": "PKPQA",
    "name": "Port Qasim",
    "country_code": "PK",
    "country_name": "Pakistan",
    "latitude": 24.77,
    "longitude": 67.35,
    "function": "1--",
    "port_type": "Sea Port",
    "terminals": 3,
    "max_depth_m": 14.0,
    "website": null,
    "phone": null,
    "address": null,
    "annual_teu": 1200000,
    "status": "active",
    "created_at": "2026-04-24 13:27:31"
  },
  {
    "id": 35,
    "unlocode": "PKGWD",
    "name": "Gwadar",
    "country_code": "PK",
    "country_name": "Pakistan",
    "latitude": 25.12,
    "longitude": 62.33,
    "function": "1--",
    "port_type": "Sea Port",
    "terminals": 1,
    "max_depth_m": 14.5,
    "website": null,
    "phone": null,
    "address": null,
    "annual_teu": 50000,
    "status": "active",
    "created_at": "2026-04-24 13:27:31"
  },
  {
    "id": 36,
    "unlocode": "SGSIN",
    "name": "Singapore",
    "country_code": "SG",
    "country_name": "Singapore",
    "latitude": 1.26,
    "longitude": 103.8,
    "function": "1--",
    "port_type": "Sea Port",
    "terminals": 50,
    "max_depth_m": 18.0,
    "website": null,
    "phone": null,
    "address": null,
    "annual_teu": 37000000,
    "status": "active",
    "created_at": "2026-04-24 13:27:31"
  },
  {
    "id": 37,
    "unlocode": "CNSHA",
    "name": "Shanghai",
    "country_code": "CN",
    "country_name": "China",
    "latitude": 31.23,
    "longitude": 121.47,
    "function": "1--",
    "port_type": "Sea Port",
    "terminals": 40,
    "max_depth_m": 16.0,
    "website": null,
    "phone": null,
    "address": null,
    "annual_teu": 43000000,
    "status": "active",
    "created_at": "2026-04-24 13:27:31"
  },
  {
    "id": 38,
    "unlocode": "NLRTM",
    "name": "Rotterdam",
    "country_code": "NL",
    "country_name": "Netherlands",
    "latitude": 51.92,
    "longitude": 4.48,
    "function": "1--",
    "port_type": "Sea Port",
    "terminals": 15,
    "max_depth_m": 24.0,
    "website": null,
    "phone": null,
    "address": null,
    "annual_teu": 14000000,
    "status": "active",
    "created_at": "2026-04-24 13:27:31"
  },
  {
    "id": 39,
    "unlocode": "AEJEA",
    "name": "Jebel Ali",
    "country_code": "AE",
    "country_name": "UAE",
    "latitude": 25.01,
    "longitude": 55.06,
    "function": "1--",
    "port_type": "Sea Port",
    "terminals": 12,
    "max_depth_m": 17.0,
    "website": null,
    "phone": null,
    "address": null,
    "annual_teu": 19000000,
    "status": "active",
    "created_at": "2026-04-24 13:27:31"
  },
  {
    "id": 40,
    "unlocode": "USLAX",
    "name": "Los Angeles",
    "country_code": "US",
    "country_name": "USA",
    "latitude": 33.74,
    "longitude": -118.27,
    "function": "1--",
    "port_type": "Sea Port",
    "terminals": 8,
    "max_depth_m": 16.0,
    "website": null,
    "phone": null,
    "address": null,
    "annual_teu": 9000000,
    "status": "active",
    "created_at": "2026-04-24 13:27:31"
  }
]